<?xml version="1.0" encoding="iso-8859-1"?>

<MRData>
	<CircuitTable season="2020">
		<Circuit circuitId="bahrain" url="http://en.wikipedia.org/wiki/Bahrain_International_Circuit">
			<CircuitName>Bahrain International Circuit</CircuitName>
			<Location lat="26.0325" long="50.5106">
				<Locality>Sakhir</Locality>
				<Country>Bahrain</Country>
			</Location>
		</Circuit>
		<Circuit circuitId="catalunya" url="http://en.wikipedia.org/wiki/Circuit_de_Barcelona-Catalunya">
			<CircuitName>Circuit de Barcelona-Catalunya</CircuitName>
			<Location lat="41.57" long="2.26111">
				<Locality>Montmeló</Locality>
				<Country>Spain</Country>
			</Location>
		</Circuit>
		<Circuit circuitId="hungaroring" url="http://en.wikipedia.org/wiki/Hungaroring">
			<CircuitName>Hungaroring</CircuitName>
			<Location lat="47.5789" long="19.2486">
				<Locality>Budapest</Locality>
				<Country>Hungary</Country>
			</Location>
		</Circuit>
		<Circuit circuitId="imola" url="http://en.wikipedia.org/wiki/Autodromo_Enzo_e_Dino_Ferrari">
			<CircuitName>Autodromo Enzo e Dino Ferrari</CircuitName>
			<Location lat="44.3439" long="11.7167">
				<Locality>Imola</Locality>
				<Country>Italy</Country>
			</Location>
		</Circuit>
		<Circuit circuitId="istanbul" url="http://en.wikipedia.org/wiki/Istanbul_Park">
			<CircuitName>Istanbul Park</CircuitName>
			<Location lat="40.9517" long="29.405">
				<Locality>Istanbul</Locality>
				<Country>Turkey</Country>
			</Location>
		</Circuit>
		<Circuit circuitId="monza" url="http://en.wikipedia.org/wiki/Autodromo_Nazionale_Monza">
			<CircuitName>Autodromo Nazionale di Monza</CircuitName>
			<Location lat="45.6156" long="9.28111">
				<Locality>Monza</Locality>
				<Country>Italy</Country>
			</Location>
		</Circuit>
		<Circuit circuitId="mugello" url="http://en.wikipedia.org/wiki/Mugello_Circuit">
			<CircuitName>Autodromo Internazionale del Mugello</CircuitName>
			<Location lat="43.9975" long="11.3719">
				<Locality>Mugello</Locality>
				<Country>Italy</Country>
			</Location>
		</Circuit>
		<Circuit circuitId="nurburgring" url="http://en.wikipedia.org/wiki/N%C3%BCrburgring">
			<CircuitName>Nürburgring</CircuitName>
			<Location lat="50.3356" long="6.9475">
				<Locality>Nürburg</Locality>
				<Country>Germany</Country>
			</Location>
		</Circuit>
		<Circuit circuitId="portimao" url="http://en.wikipedia.org/wiki/Algarve_International_Circuit">
			<CircuitName>Autódromo Internacional do Algarve</CircuitName>
			<Location lat="37.227" long="-8.6267">
				<Locality>Portimão</Locality>
				<Country>Portugal</Country>
			</Location>
		</Circuit>
		<Circuit circuitId="red_bull_ring" url="http://en.wikipedia.org/wiki/Red_Bull_Ring">
			<CircuitName>Red Bull Ring</CircuitName>
			<Location lat="47.2197" long="14.7647">
				<Locality>Spielburg</Locality>
				<Country>Austria</Country>
			</Location>
		</Circuit>
		<Circuit circuitId="silverstone" url="http://en.wikipedia.org/wiki/Silverstone_Circuit">
			<CircuitName>Silverstone Circuit</CircuitName>
			<Location lat="52.0786" long="-1.01694">
				<Locality>Silverstone</Locality>
				<Country>UK</Country>
			</Location>
		</Circuit>
		<Circuit circuitId="sochi" url="http://en.wikipedia.org/wiki/Sochi_Autodrom">
			<CircuitName>Sochi Autodrom</CircuitName>
			<Location lat="43.4057" long="39.9578">
				<Locality>Sochi</Locality>
				<Country>Russia</Country>
			</Location>
		</Circuit>
		<Circuit circuitId="spa" url="http://en.wikipedia.org/wiki/Circuit_de_Spa-Francorchamps">
			<CircuitName>Circuit de Spa-Francorchamps</CircuitName>
			<Location lat="50.4372" long="5.97139">
				<Locality>Spa</Locality>
				<Country>Belgium</Country>
			</Location>
		</Circuit>
		<Circuit circuitId="yas_marina" url="http://en.wikipedia.org/wiki/Yas_Marina_Circuit">
			<CircuitName>Yas Marina Circuit</CircuitName>
			<Location lat="24.4672" long="54.6031">
				<Locality>Abu Dhabi</Locality>
				<Country>UAE</Country>
			</Location>
		</Circuit>
	</CircuitTable>
</MRData>
